id,code,name,lat,lon
0,MA,Manaus,-3.119,-60.0217
1,BE,Belém,-1.4558,-48.4902
2,FO,Fortaleza,-3.7172,-38.5434
3,NA,Natal,-5.7945,-35.211
4,RE,Recife,-8.0476,-34.877
5,SA,Salvador,-12.9777,-38.5016
6,BR,Brasília,-15.7939,-47.8828
7,BH,Belo Horizonte,-19.9167,-43.9345
8,CI,Cuiabá,-15.601,-56.0979
9,RJ,Rio de Janeiro,-22.9068,-43.1729
10,SP,São Paulo,-23.5505,-46.6333
11,CR,Curitiba,-25.4284,-49.2733
12,FL,Florianópolis,-27.5954,-48.548
13,PA,Porto Alegre,-30.0346,-51.2177
